[
    {
        "name": "Mulhouse",
        "lng": 7.335888000000068,
        "lat": 47.750839,
        "type": "City",
        "now": true
    },
    {
        "name": "Alpes d'Huez",
        "lng": 0.9792226,
        "lat": 49.4630381,
        "type": "City",
        "now": false
    },
    {
        "name": "Minorque",
        "lng": 4.0499642,
        "lat": 39.9492572,
        "type": "City",
        "now": false
    },
    {
        "name": "Guernesey",
        "lng": -2.5812023,
        "lat": 49.4622912,
        "type": "City",
        "now": false
    },
    {
        "name": "Jersey",
        "lng": -2.1358386,
        "lat": 49.2214561,
        "type": "City",
        "now": false
    },
    {
        "name": "Leipzig",
        "lng": 12.3747329,
        "lat": 51.3406321,
        "type": "City",
        "now": false
    },
    {
        "name": "Nantes",
        "lng": -1.5541362,
        "lat": 47.2186371,
        "type": "City",
        "now": false
    },
    {
        "name": "Lausanne",
        "lng": 6.6327025,
        "lat": 46.5218269,
        "type": "City",
        "now": false
    },
    {
        "name": "Nancy",
        "lng": 6.1834097,
        "lat": 48.6937223,
        "type": "City",
        "now": false
    },
    {
        "name": "Versailles",
        "lng": 2.1266886,
        "lat": 48.8035403,
        "type": "City",
        "now": false
    },
    {
        "name": "Orléans",
        "lng": 1.9086066,
        "lat": 47.9027336,
        "type": "City",
        "now": false
    },
    {
        "name": "Le Havre",
        "lng": 0.1079732,
        "lat": 49.4938975,
        "type": "City",
        "now": false
    },
    {
        "name": "Saint-Lô",
        "lng": -1.0909278,
        "lat": 49.115808,
        "type": "City",
        "now": false
    },
    {
        "name": "Caen",
        "lng": -0.3635615,
        "lat": 49.1813403,
        "type": "City",
        "now": false
    },
    {
        "name": "Cherbourg-en-Cotentin",
        "lng": -1.6249565,
        "lat": 49.6425343,
        "type": "City",
        "now": false
    },
    {
        "name": "Gravelines",
        "lng": 2.1273118,
        "lat": 50.9870697,
        "type": "City",
        "now": false
    },
    {
        "name": "Toulouse",
        "lng": 1.4442469,
        "lat": 43.6044622,
        "type": "City",
        "now": false
    },
    {
        "name": "Washington",
        "lng": -77.0365427,
        "lat": 38.8950368,
        "type": "City",
        "now": false
    },
    {
        "name": "Funchal",
        "lng": -16.9,
        "lat": 32.63333,
        "type": "City",
        "now": false
    },
    {
        "name": "Lisbonne",
        "lng": -9.1365919,
        "lat": 38.7077507,
        "type": "City",
        "now": false
    },
    {
        "name": "Valence",
        "lng": -0.3763353,
        "lat": 39.4697065,
        "type": "City",
        "now": false
    },
    {
        "name": "Athènes",
        "lng": 23.7348324,
        "lat": 37.9755648,
        "type": "City",
        "now": false
    },
    {
        "name": "Toronto",
        "lng": -79.3839347,
        "lat": 43.6534817,
        "type": "City",
        "now": false
    },
    {
        "name": "Salt Lake City",
        "lng": -111.886797,
        "lat": 40.7596198,
        "type": "City",
        "now": false
    },
    {
        "name": "Amsterdam",
        "lng": 4.8936041,
        "lat": 52.3727598,
        "type": "City",
        "now": false
    },
    {
        "name": "New York",
        "lng": -74.0060152,
        "lat": 40.7127281,
        "type": "City",
        "now": false
    },
    {
        "name": "Boston",
        "lng": -71.05888010000001,
        "lat": 42.3600825,
        "type": "City",
        "now": false
    },
    {
        "name": "Edinburgh",
        "lng": -3.209308999999962,
        "lat": 55.9460638,
        "type": "City",
        "now": false
    },
    {
        "name": "Solothurn",
        "lng": 7.5322909999999865,
        "lat": 47.2088348,
        "type": "City",
        "now": false
    },
    {
        "name": "Titisee",
        "lng": 8.144789700000047,
        "lat": 47.8946026,
        "type": "City",
        "now": false
    },
    {
        "name": "Annecy",
        "lng": 6.129383999999959,
        "lat": 45.899247,
        "type": "City",
        "now": false
    },
    {
        "name": "Venise",
        "lng": 12.31551509999997,
        "lat": 45.4408474,
        "type": "City",
        "now": false
    },
    {
        "name": "Barcelone",
        "lng": 2.1734034999999494,
        "lat": 41.3850639,
        "type": "City",
        "now": false
    },
    {
        "name": "Lyon",
        "lng": 4.835658999999964,
        "lat": 45.764043,
        "type": "City",
        "now": false
    },
    {
        "name": "Strasbourg",
        "lng": 7.752111300000024,
        "lat": 48.5734053,
        "type": "City",
        "now": false
    },
    {
        "name": "Rome",
        "lng": 12.496365500000024,
        "lat": 41.9027835,
        "type": "City",
        "now": false
    },
    {
        "name": "Nice",
        "lng": 7.261953199999994,
        "lat": 43.7101728,
        "type": "City",
        "now": false
    },
    {
        "name": "Munich",
        "lng": 11.581980499999986,
        "lat": 48.1351253,
        "type": "City",
        "now": false
    },
    {
        "name": "Clermont-Ferrand",
        "lng": 3.0870250000000397,
        "lat": 45.77722199999999,
        "type": "City",
        "now": false
    },
    {
        "name": "St-Jacus de la mer",
        "lng": -2.190027999999984,
        "lat": 48.59734,
        "type": "City",
        "now": false
    },
    {
        "name": "Chicago",
        "lng": -87.62979819999998,
        "lat": 41.8781136,
        "type": "City",
        "now": false
    },
    {
        "name": "Indianapolis",
        "lng": -86.15806800000001,
        "lat": 39.768403,
        "type": "City",
        "now": false
    },
    {
        "name": "Dublin",
        "lng": -6.260309699999993,
        "lat": 53.3498053,
        "type": "City",
        "now": false
    },
    {
        "name": "Londre",
        "lng": -0.12775829999998223,
        "lat": 51.5073509,
        "type": "City",
        "now": false
    },
    {
        "name": "Rapperswil-Jona",
        "lng": 8.818437399999993,
        "lat": 47.2266239,
        "type": "City",
        "now": false
    },
    {
        "name": "San Francisco",
        "lng": -122.41941550000001,
        "lat": 37.7749295,
        "type": "City",
        "now": false
    },
    {
        "name": "Mountain View",
        "lng": -122.0838511,
        "lat": 37.3860517,
        "type": "City",
        "now": false
    },
    {
        "name": "Prague",
        "lng": 14.43780049999998,
        "lat": 50.0755381,
        "type": "City",
        "now": false
    },
    {
        "name": "Fribourg",
        "lng": 7.161971900000026,
        "lat": 46.8064773,
        "type": "City",
        "now": false
    },
    {
        "name": "Genêve",
        "lng": 6.143157699999961,
        "lat": 46.2043907,
        "type": "City",
        "now": false
    },
    {
        "name": "Bruxelles",
        "lng": 4.351721099999963,
        "lat": 50.8503463,
        "type": "City",
        "now": false
    },
    {
        "name": "Copenhagen",
        "lng": 12.568337199999974,
        "lat": 55.6760968,
        "type": "City",
        "now": false
    },
    {
        "name": "Berlin",
        "lng": 13.404953999999975,
        "lat": 52.52000659999999,
        "type": "City",
        "now": false
    },
    {
        "name": "Paris",
        "lng": 2.3522219000000177,
        "lat": 48.856614,
        "type": "City",
        "now": false
    },
    {
        "name": "Bale",
        "lng": 7.588576099999955,
        "lat": 47.5595986,
        "type": "City",
        "now": false
    }
]
